[
{"location": "Quy Nhơn, ", "rank": "Số 1", "name": "Bai Xep Beach", "rating": "4,5", "street_address": "1d, Quy Nhơn, ", "reviews_number": "88"},
{"location": "Quy Nhơn, ", "rank": "Số 3", "name": "Ky Co Beach", "rating": "4,5", "street_address": "Xã Nhơn Lý, Quy Nhơn, ", "reviews_number": "64"},
{"location": "Quy Nhơn, ", "rank": "Số 5", "name": "Nguyen Nga Center", "rating": "5", "street_address": "884 Trần Hưng Đạo, Quy Nhơn, ", "reviews_number": "20"},
{"location": "Quy Nhơn, ", "rank": "Số 4", "name": "Tháp Đôi", "rating": "4", "street_address": "Đống Đa, Quy Nhơn, ", "reviews_number": "57"},
{"location": "Quy Nhơn, ", "rank": "Số 6", "name": "Đảo Hòn Khô", "rating": "4", "street_address": "Thôn Hải Đông, Xã Nhơn Hải, Quy Nhơn, ", "reviews_number": "40"},
{"location": "Quy Nhơn, ", "rank": "Số 2", "name": "Eo Gió", "rating": "4,5", "street_address": "Thôn Hưng Lương, Quy Nhơn, ", "reviews_number": "80"},
{"location": "Quy Nhơn, ", "rank": "Số 16", "name": "Aurora Spa", "rating": null, "street_address": "Km 15, Quốc Lộ 1D, Ghềnh Ráng, Quy Nhơn, ", "reviews_number": null},
{"location": "Quy Nhơn, ", "rank": "Số 15", "name": "Khánh Thy Spa", "rating": null, "street_address": "200-202 Tăng Bạt, Quy Nhơn, ", "reviews_number": null},
{"location": "Quy Nhơn, ", "rank": "Số 14", "name": "Bảo Tàng Bình Định", "rating": "3,5", "street_address": "26 Nguyễn Huệ, Quy Nhơn, ", "reviews_number": "16"},
{"location": "Quy Nhơn, ", "rank": "Số 8", "name": "AVANI Quy Nhon Resort Spa", "rating": "4,5", "street_address": "Ghềnh Ráng, Bãi Dài, Quy Nhơn, ", "reviews_number": "11"},
{"location": "Quy Nhơn, ", "rank": "Số 11", "name": "Sen Việt Spa", "rating": "4,5", "street_address": "287 Nguyễn Thái Học, Quy Nhơn, ", "reviews_number": "4"},
{"location": "Quy Nhơn, ", "rank": "Số 13", "name": "Long Khanh Pagoda", "rating": "3", "street_address": "141 Tran Cao Van Street, Quy Nhơn, ", "reviews_number": "1"},
{"location": "Quy Nhơn, ", "rank": "Số 12", "name": "Công Viên Động Vật Hoang Dã Quy Nhơn", "rating": "3", "street_address": "Khu 4, bãi biển Nhơn Lý, Cát Tiến,, Quy Nhơn, ", "reviews_number": "8"},
{"location": "Quy Nhơn 820000, ", "rank": "Số 10", "name": "Massage Người Mù Thế Tuấn", "rating": "5", "street_address": "238 Nguyễn Thị Định, Quy Nhơn 820000, ", "reviews_number": "3"}
]